City_ID,City,Lat,Lng,Max Temp,Humidity,Cloudiness,Wind Speed,Country,Date
0,dalandzadgad,43.5708,104.425,264.52,68,2,1.62,MN,1707371049
1,novo aripuana,-5.1206,-60.3797,298.55,84,85,0.45,BR,1707371049
2,vadso,70.0744,29.7487,258.24,85,75,2.57,NO,1707371049
3,saipan,15.1355,145.701,301.54,65,40,7.2,MP,1707370978
4,port-aux-francais,-49.35,70.2167,277.55,70,85,11.97,TF,1707371049
5,luena,-11.7833,19.9167,292.25,94,99,3.09,AO,1707371050
6,kondagaon,19.6,81.6667,303.44,29,16,2.3,IN,1707371050
7,baotou,40.6522,109.8222,267.21,69,39,1.77,CN,1707371050
8,plastun,44.7561,136.2939,269.51,47,0,6.36,RU,1707371050
9,west island,-12.1568,96.8225,300.14,94,100,7.72,CC,1707371036
10,ciudad bolivar,8.1222,-63.5497,300.22,74,100,3.86,VE,1707370987
11,constantia,44.1833,28.65,279.53,75,100,3.63,RO,1707370909
12,adamstown,-25.066,-130.1015,294.65,88,100,4.57,PN,1707371051
13,pyhajarvi,67.0701,27.2176,247.35,100,100,1.4,FI,1707371051
14,caleta de carquin,-11.0925,-77.6267,297.34,85,43,3.09,PE,1707371051
15,rio grande,-32.035,-52.0986,295.34,86,51,4.5,BR,1707370924
16,wailua homesteads,22.0669,-159.378,295.18,77,20,8.23,US,1707371051
17,papatowai,-46.5619,169.4708,285.58,79,30,6.71,NZ,1707371051
18,bethel,41.3712,-73.414,272.13,72,0,0.0,US,1707371051
19,waitangi,-43.9535,-176.5597,291.94,83,100,0.89,NZ,1707371051
20,inirida,3.8653,-67.9239,296.6,98,75,1.09,CO,1707371052
21,isafjordur,66.0755,-23.124,264.97,75,2,1.73,IS,1707370761
22,hithadhoo,-0.6,73.0833,300.85,76,90,3.76,MV,1707371052
23,puerto natales,-51.7236,-72.4875,282.07,74,86,7.3,CL,1707371052
24,malango,-2.9627,119.9001,300.41,69,100,0.58,ID,1707371052
25,tazovsky,67.4667,78.7,267.04,95,100,5.67,RU,1707371052
26,invercargill,-46.4,168.35,287.6,74,50,7.6,NZ,1707371052
27,darwin,-12.4611,130.8418,305.74,57,78,2.24,AU,1707371053
28,lima,-12.0432,-77.0282,299.21,72,0,6.17,PE,1707370805
29,edinburgh of the seven seas,-37.0676,-12.3116,290.2,69,97,2.57,SH,1707370884
30,tamanrasset,22.785,5.5228,279.1,26,0,2.06,DZ,1707370766
31,east london,-33.0153,27.9116,293.67,68,0,3.6,ZA,1707370762
32,maceio,-9.6658,-35.7353,299.84,94,40,2.57,BR,1707371053
33,birobidzhan,48.8,132.95,266.64,71,11,2.66,RU,1707371053
34,nanao,37.05,136.9667,278.15,63,98,2.17,JP,1707371054
35,rongelap,11.1635,166.8941,299.57,77,100,8.48,MH,1707371054
36,gadzhiyevo,69.2551,33.3362,248.64,100,93,3.43,RU,1707371054
37,mostaganem,35.9311,0.0892,286.22,49,26,3.08,DZ,1707371054
38,puerto ayora,-0.7393,-90.3518,299.01,94,96,2.24,EC,1707371054
39,iqaluit,63.7506,-68.5145,252.0,65,0,2.57,CA,1707371054
40,sergeyevka,53.88,67.4158,264.47,90,100,8.25,KZ,1707371054
41,aasiaat,68.7098,-52.8699,254.19,96,100,3.41,GL,1707370778
42,albany,42.6001,-73.9662,270.76,76,31,0.71,US,1707371055
43,blackmans bay,-43.0167,147.3167,293.78,67,3,0.89,AU,1707371055
44,kirakira,-10.4544,161.9205,302.4,77,100,7.41,SB,1707371055
45,kodiak,57.79,-152.4072,273.88,80,0,3.09,US,1707371055
46,behbahan,30.5959,50.2417,287.07,48,0,0.25,IR,1707371055
47,hermanus,-34.4187,19.2345,292.48,71,70,4.21,ZA,1707371055
48,iskateley,67.6803,53.1512,259.83,95,100,4.92,RU,1707371055
49,margate,51.3813,1.3862,278.18,84,100,1.79,GB,1707370786
50,labasa,-16.4167,179.3833,300.79,84,98,2.02,FJ,1707371056
51,abdulino,53.7,53.6667,267.67,95,100,6.87,RU,1707371056
52,port alfred,-33.5906,26.891,294.36,79,8,1.34,ZA,1707371056
53,hasaki,35.7333,140.8333,284.37,67,100,3.98,JP,1707371056
54,grytviken,-54.2811,-36.5092,280.68,75,100,3.99,GS,1707370889
55,katsuura,35.1333,140.3,282.86,62,91,4.54,JP,1707371056
56,mabai,23.0128,104.4508,286.31,75,99,2.49,CN,1707371057
57,flying fish cove,-10.4217,105.6791,302.97,74,75,2.57,CX,1707371057
58,ormara,25.2088,64.6357,295.79,45,84,4.72,PK,1707371057
59,san patricio,28.017,-97.5169,292.44,80,96,9.25,US,1707371057
60,ushuaia,-54.8,-68.3,280.96,71,75,2.06,AR,1707371057
61,belek,36.8628,31.0556,286.68,79,97,3.21,TR,1707371057
62,pechora,65.1472,57.2244,264.8,91,100,0.55,RU,1707371057
63,anadyr,64.75,177.4833,257.04,84,100,8.0,RU,1707371057
64,paraiso,9.8383,-83.8656,288.6,94,93,1.82,CR,1707370999
65,kalmunai,7.4167,81.8167,301.08,65,66,4.2,LK,1707371058
66,trujillo,-8.116,-79.03,298.13,78,75,3.6,PE,1707371058
67,dudinka,69.4058,86.1778,246.3,97,25,1.79,RU,1707371058
68,fonte boa,-2.4959,-66.2662,296.72,99,100,1.03,BR,1707371058
69,udachny,66.4167,112.4,247.84,75,99,1.44,RU,1707371058
70,mega,4.05,38.3,293.4,60,10,7.48,ET,1707371058
71,bubaque,11.2833,-15.8333,299.08,68,100,4.14,GW,1707371058
72,tiksi,71.6872,128.8694,252.0,100,100,2.25,RU,1707371059
73,alice springs,-23.7,133.8833,307.71,14,11,7.72,AU,1707371059
74,college,64.8569,-147.8028,250.9,76,40,0.0,US,1707371059
75,vanimo,-2.6741,141.3028,302.42,73,81,5.69,PG,1707371059
76,lerwick,60.1545,-1.1494,274.15,64,41,6.53,GB,1707371059
77,fiambala,-27.6871,-67.6149,297.79,48,92,0.51,AR,1707371059
78,tionk essil,12.7856,-16.5217,295.18,40,54,2.06,SN,1707371059
79,port mathurin,-19.6833,63.4167,300.11,77,86,9.44,MU,1707371059
80,pyapon,16.2833,95.6833,307.42,28,0,2.96,MM,1707371060
81,port elizabeth,-33.918,25.5701,294.93,70,0,3.6,ZA,1707371060
82,st. john's,47.5649,-52.7093,270.91,92,100,7.2,CA,1707371060
83,likasi,-10.9814,26.7333,292.41,91,95,0.77,CD,1707371060
84,ntungamo,-0.8833,29.65,297.61,55,19,0.1,UG,1707371060
85,merizo village,13.2658,144.6691,301.7,75,93,6.39,GU,1707371060
86,yellowknife,62.456,-114.3525,256.49,84,75,2.57,CA,1707370832
87,utrik,11.2278,169.8474,299.54,85,93,9.34,MH,1707371060
88,cill airne,52.05,-9.5167,280.34,97,100,3.36,IE,1707370932
89,bulawayo,-20.15,28.5833,298.78,47,6,2.38,ZW,1707371061
90,glace bay,46.1969,-59.957,271.01,89,100,5.66,CA,1707371061
91,mustafakemalpasa,40.0353,28.4117,283.18,77,100,2.92,TR,1707371061
92,guerrero negro,27.9769,-114.0611,287.8,66,2,3.43,MX,1707371061
93,la'ie,21.6477,-157.9253,296.15,74,8,5.81,US,1707371061
94,nova sintra,14.8667,-24.7167,294.05,75,0,7.95,CV,1707371061
95,aksu,41.1231,80.2644,272.12,54,39,0.39,CN,1707371062
96,kingston,17.997,-76.7936,294.28,69,20,4.12,JM,1707370829
97,okhotsk,59.3833,143.3,253.15,84,86,3.24,RU,1707371062
98,jaral del progreso,20.3667,-101.0667,287.21,52,53,1.6,MX,1707371062
99,pirawa,24.1551,76.0273,293.67,27,92,4.39,IN,1707371062
100,luganville,-15.5333,167.1667,301.85,78,91,1.63,VU,1707371062
101,khouribga,32.9333,-6.6,283.12,37,67,2.68,MA,1707371062
102,tolanaro,-25.0319,46.9987,300.75,72,5,1.84,MG,1707370955
103,karema,-6.8205,30.4389,296.52,82,22,1.05,TZ,1707371062
104,bharatpur,27.2167,77.4833,290.1,25,15,6.89,IN,1707371063
105,stanley,54.868,-1.6985,270.63,92,99,1.71,GB,1707370906
106,prado,-17.3411,-39.2208,298.4,87,100,1.66,BR,1707371063
107,balkanabat,39.5108,54.3671,288.02,34,8,2.59,TM,1707371063
108,mount isa,-20.7333,139.5,304.02,48,100,3.09,AU,1707370769
109,kruisfontein,-34.0033,24.7314,293.64,68,37,4.66,ZA,1707371063
110,tura,25.5198,90.2201,295.34,22,2,2.64,IN,1707371063
111,novodvinsk,64.4165,40.8122,249.14,98,98,3.2,RU,1707371063
112,greymouth,-42.4667,171.2,289.34,68,72,5.34,NZ,1707371064
113,tataouine,32.9297,10.4518,283.97,44,1,2.96,TN,1707371064
114,hadibu,12.65,54.0333,299.82,66,99,6.58,YE,1707371064
115,mabaruma,8.2,-59.7833,297.53,89,24,2.33,GY,1707371064
116,longyearbyen,78.2186,15.6401,265.06,67,40,5.14,SJ,1707371064
117,mount gambier,-37.8333,140.7667,293.73,49,0,5.46,AU,1707370800
118,avarua,-21.2078,-159.775,300.18,78,20,7.2,CK,1707371064
119,poli,-3.3333,36.8,288.58,88,40,2.06,TZ,1707371064
120,egilsstadir,65.2653,-14.3948,268.1,68,75,2.06,IS,1707371065
121,bani walid,31.7566,13.9942,285.0,41,0,3.35,LY,1707371065
122,puerto aysen,-45.4,-72.7,282.84,95,100,2.29,CL,1707371065
123,kargasok,59.0556,80.8572,266.46,97,100,3.13,RU,1707371065
124,polyarnyy,69.1989,33.4478,249.87,100,89,3.6,RU,1707371065
125,jamestown,42.097,-79.2353,273.9,66,0,1.54,US,1707371058
126,enewetak,11.3474,162.3373,299.87,82,100,7.54,MH,1707371065
127,mamontovo,52.7055,81.6244,270.39,92,95,5.73,RU,1707371065
128,kamyzyak,46.11,48.0736,282.05,61,0,9.0,RU,1707371065
129,bodaybo,57.8506,114.1933,263.93,90,100,0.54,RU,1707371066
130,kailua-kona,19.6406,-155.9956,295.92,81,75,2.06,US,1707371066
131,petropavlovsk-kamchatsky,53.0452,158.6483,265.62,80,75,1.0,RU,1707370963
132,yanaul,56.2719,54.9309,262.77,94,100,3.58,RU,1707371066
133,el charco,2.4769,-78.1105,297.42,95,64,1.22,CO,1707371066
134,pacific grove,36.6177,-121.9166,281.58,76,75,6.17,US,1707371066
135,moyynkum,44.2914,72.9469,271.84,100,100,3.46,KZ,1707371066
136,cavelossim,15.1726,73.9419,304.14,31,4,1.46,IN,1707371066
137,la palma,33.8464,-118.0467,283.91,92,100,6.69,US,1707371067
138,kabwe,-14.4469,28.4464,293.85,84,45,1.05,ZM,1707371067
139,cabedelo,-6.9811,-34.8339,301.52,82,85,3.83,BR,1707371067
140,collie,-33.3667,116.15,311.95,9,0,0.61,AU,1707371067
141,afega,-13.7973,-171.8531,302.04,83,75,4.63,WS,1707371067
142,castillos,-34.1667,-53.8333,293.51,92,39,3.13,UY,1707371067
143,olonkinbyen,70.9221,-8.7187,270.19,50,80,6.86,SJ,1707371067
144,igarka,67.4667,86.5833,254.13,98,95,2.39,RU,1707371068
145,kodinsk,58.6881,99.1844,266.73,91,97,0.57,RU,1707371068
146,minas de marcona,-15.2119,-75.1103,292.69,92,100,3.29,PE,1707371068
147,haiku-pauwela,20.9219,-156.3051,293.87,70,20,7.2,US,1707371068
148,bilibino,68.0546,166.4372,239.59,99,99,0.31,RU,1707370939
149,gisborne,-38.6533,178.0042,296.49,72,24,2.52,NZ,1707371068
150,phan thiet,10.9333,108.1,302.76,58,14,5.01,VN,1707371068
151,lompoc,34.6391,-120.4579,281.11,78,100,6.71,US,1707371068
152,navarre,30.4016,-86.8636,283.18,71,97,4.87,US,1707370933
153,georgetown,5.4112,100.3354,307.12,59,20,3.6,MY,1707370862
154,kanker,20.2719,81.4931,301.24,26,11,2.74,IN,1707371069
155,la ronge,55.1001,-105.2842,264.29,86,100,3.6,CA,1707371069
156,nuuk,64.1835,-51.7216,264.49,62,100,9.26,GL,1707371069
157,les sables-d'olonne,46.6667,-1.8333,286.59,94,100,7.62,FR,1707371069
158,zaozersk,69.4005,32.4476,248.27,99,70,2.2,RU,1707371069
159,margaret river,-33.95,115.0667,298.97,47,0,3.19,AU,1707371069
160,bredasdorp,-34.5322,20.0403,293.03,61,53,4.67,ZA,1707371069
161,lydenburg,-25.0978,30.4597,296.4,67,57,0.86,ZA,1707371070
162,atafu village,-8.5421,-172.5159,301.68,80,100,6.44,TK,1707371024
163,northam,51.0333,-4.2167,282.17,97,100,5.68,GB,1707371070
164,naze,28.3667,129.4833,285.66,76,100,6.33,JP,1707371070
165,cabeza del buey,38.7223,-5.2195,279.91,96,86,2.27,ES,1707371070
166,kimbe,-5.5502,150.1429,297.78,95,100,2.78,PG,1707371070
167,papao,-17.75,-149.55,301.97,90,98,16.89,PF,1707371070
168,segezha,63.7415,34.3222,247.69,100,96,2.9,RU,1707371070
169,talnakh,69.4865,88.3972,248.13,88,24,1.99,RU,1707371071
170,micheweni,-4.9667,39.8333,302.26,70,60,5.08,TZ,1707371071
171,ilulissat,69.2167,-51.1,261.16,72,100,4.12,GL,1707371071
172,floro,61.5996,5.0328,270.13,74,40,4.63,NO,1707371071
173,santo antonio,-6.3106,-35.4789,297.46,89,99,1.98,BR,1707371071
174,culebra,18.303,-65.301,295.95,98,98,1.34,PR,1707371071
175,kutum,14.2,24.6667,286.51,26,62,1.87,SD,1707371071
176,coquimbo,-29.9533,-71.3436,292.0,94,100,1.54,CL,1707370958
177,ketchikan,55.3422,-131.6461,273.42,74,0,1.54,US,1707371072
178,island harbour,50.724,-1.2758,280.42,95,100,4.02,GB,1707371001
179,norman gardens,-23.3224,150.5393,302.44,51,75,4.63,AU,1707371072
180,port douglas,-16.4833,145.4667,301.55,77,77,4.38,AU,1707371072
181,tutoia,-2.7619,-42.2744,300.97,78,72,6.13,BR,1707371072
182,richards bay,-28.783,32.0377,298.47,74,78,3.98,ZA,1707371072
183,springs,-26.25,28.4,297.47,37,66,3.07,ZA,1707371072
184,hamilton,39.1834,-84.5333,279.93,55,0,4.12,US,1707370792
185,lebu,-37.6167,-73.65,286.96,79,98,7.92,CL,1707371073
186,kegen,43.0197,79.2203,268.36,70,100,0.85,KZ,1707371073
187,dourbali,11.8091,15.8632,289.59,20,5,3.8,TD,1707371073
188,arno,60.1167,18.6333,268.59,77,23,1.56,SE,1707371073
189,copan,14.8333,-89.15,286.76,97,1,0.83,HN,1707371073
190,santa ana,33.7456,-117.8678,284.29,91,100,8.23,US,1707371073
191,port lincoln,-34.7333,135.8667,293.81,57,3,6.63,AU,1707370905
192,namibe,-15.1961,12.1522,298.81,75,98,3.1,AO,1707371073
193,claveria,18.6074,121.0832,299.35,75,18,3.9,PH,1707371074
194,palmer,42.1584,-72.3287,271.88,77,100,0.0,US,1707371074
195,qaqortoq,60.7167,-46.0333,267.52,81,100,4.46,GL,1707370883
196,devils lake,48.1128,-98.8651,274.19,98,100,4.12,US,1707371074
197,kudahuvadhoo,2.6708,72.8944,300.9,71,97,7.35,MV,1707371074
198,broome,42.2506,-75.833,273.26,77,58,0.99,US,1707371074
199,paracuru,-3.41,-39.0306,301.54,83,67,4.83,BR,1707371074
200,san luis de la loma,17.2706,-100.8939,296.78,81,0,1.71,MX,1707371074
201,kapa'a,22.0752,-159.319,295.96,77,20,8.23,US,1707371075
202,dwarka,22.2394,68.9678,297.1,52,90,8.41,IN,1707371075
203,lihue,21.9789,-159.3672,295.63,77,20,8.23,US,1707371075
204,fale old settlement,-9.3852,-171.2468,301.06,83,98,7.75,TK,1707371075
205,whitehorse,60.7161,-135.0538,254.67,80,75,1.03,CA,1707371075
206,weno,7.4515,151.8468,302.12,79,75,5.14,FM,1707371075
207,whitby,54.4877,-0.615,274.03,70,98,3.76,GB,1707371075
208,touros,-5.1989,-35.4608,299.75,81,41,4.65,BR,1707371075
209,timbiqui,2.7717,-77.6654,297.3,94,68,1.23,CO,1707371076
210,shalqar,47.8333,59.6,273.58,97,72,10.69,KZ,1707371076
211,alofi,-19.0595,-169.9187,300.81,81,9,5.38,NU,1707371076
212,pitimbu,-7.4706,-34.8086,301.48,83,85,3.48,BR,1707371076
213,saint-pierre,-21.3393,55.4781,301.97,70,100,1.54,RE,1707371076
214,ust-nera,64.5667,143.2,246.88,99,100,0.66,RU,1707371076
215,hawaiian paradise park,19.5933,-154.9731,293.93,89,40,1.54,US,1707370822
216,tual,-5.6667,132.75,301.11,78,100,8.19,ID,1707371076
217,rouyn-noranda,48.2398,-79.0288,273.2,100,100,2.57,CA,1707371077
218,geraldton,-28.7667,114.6,315.38,9,0,2.57,AU,1707371077
219,nagqu,31.5,92.0,269.33,11,0,11.26,CN,1707371077
220,badger,64.8,-147.5333,250.98,79,40,0.0,US,1707371077
221,sao gotardo,-19.3111,-46.0489,291.83,96,100,1.01,BR,1707371077
222,pisco,-13.7,-76.2167,297.18,88,0,3.09,PE,1707371077
223,acapulco de juarez,16.8634,-99.8901,299.05,78,0,1.54,MX,1707370915
224,outjo,-20.1167,16.15,295.68,59,99,0.53,NA,1707371077
225,i-n-salah,27.1935,2.4607,285.87,31,23,3.61,DZ,1707371078
226,jiangkou,25.4872,119.1986,282.78,83,99,5.91,CN,1707371078
227,amga,60.8953,131.9608,245.37,92,100,1.62,RU,1707371078
228,dembi dolo,8.5333,34.8,293.57,47,75,1.01,ET,1707371078
229,vorgashor,67.5833,63.95,268.15,85,100,6.18,RU,1707370971
230,cabo san lucas,22.8909,-109.9124,294.07,65,91,0.45,MX,1707370802
231,klyuchi,52.2667,79.1667,271.21,78,15,5.91,RU,1707371078
232,narayanpet,16.7333,77.5,304.64,34,24,1.01,IN,1707371078
233,kapuskasing,49.4169,-82.4331,274.15,93,100,2.57,CA,1707371078
234,siracusa,37.0881,15.2792,284.15,64,7,2.74,IT,1707371079
235,plesetsk,62.708,40.2916,253.52,94,100,4.19,RU,1707371079
236,punta arenas,-53.15,-70.9167,282.21,66,0,13.38,CL,1707371079
237,ponoka,52.6768,-113.5815,267.34,93,100,0.78,CA,1707371079
238,huzhou,30.8703,120.0933,278.85,50,39,2.0,CN,1707371079
239,mammoth lakes,37.6485,-118.9721,267.43,91,100,2.06,US,1707371079
240,queenstown,-31.8976,26.8753,290.52,72,34,1.42,ZA,1707371079
241,'alaqahdari dishu,30.4374,63.313,290.85,16,0,3.81,AF,1707370829
242,mimizan,44.2006,-1.2289,283.54,68,100,5.92,FR,1707371080
243,moalboal,9.9433,123.3992,302.01,68,63,2.79,PH,1707371080
244,codrington,-38.2667,141.9667,292.09,56,0,6.3,AU,1707371080
245,kerikeri,-35.2268,173.9474,297.54,72,16,1.55,NZ,1707371080
246,zomba,-15.386,35.3188,298.09,73,35,0.67,MW,1707371080
247,ulaangom,49.9811,92.0667,246.56,94,98,1.8,MN,1707371080
248,kourou,5.1552,-52.6478,300.18,85,82,3.96,GF,1707371080
249,amqui,48.4638,-67.4313,261.28,99,94,0.7,CA,1707371081
250,sigli,5.3848,95.9609,302.46,68,16,2.67,ID,1707371081
251,yelizovo,53.1873,158.3805,269.0,45,75,1.0,RU,1707371081
252,shimoda,34.6667,138.95,281.54,68,74,1.91,JP,1707371081
253,dukhan,25.4297,50.7858,290.92,58,0,6.91,QA,1707371081
254,amos,48.5669,-78.1162,272.39,96,100,1.53,CA,1707371081
255,chonchi,-42.6128,-73.8092,280.99,97,34,0.85,CL,1707371081
256,uturoa,-16.7333,-151.4333,301.54,84,86,10.95,PF,1707370903
257,gaillimh,53.2719,-9.0489,277.03,90,100,12.67,IE,1707371082
258,ilhabela,-23.7781,-45.3581,296.98,91,61,1.24,BR,1707371082
259,port augusta,-32.5,137.7667,303.35,24,1,8.92,AU,1707371082
260,santana,-0.0583,-51.1817,300.25,89,40,1.54,BR,1707371082
261,calvi,42.5,8.8333,285.5,38,0,6.69,FR,1707371082
262,lycksele,64.5954,18.6735,258.08,92,75,3.09,SE,1707371082
263,hobyo,5.3505,48.5268,300.87,65,83,8.55,SO,1707371082
264,malpica,43.3228,-8.8105,286.29,73,100,13.14,ES,1707371082
265,noumea,-22.2763,166.4572,302.59,99,100,7.21,NC,1707371083
266,aykhal,66.0,111.5,250.15,96,100,2.05,RU,1707371083
267,fort st. john,56.2499,-120.8529,265.09,86,100,1.03,CA,1707370821
268,gaalkacyo,6.7697,47.4308,299.06,50,38,8.03,SO,1707371083
269,yerofey pavlovich,53.9667,121.9667,264.26,58,77,0.18,RU,1707371083
270,comodoro rivadavia,-45.8667,-67.5,288.07,41,0,13.89,AR,1707371083
271,holualoa,19.6228,-155.9522,293.91,80,75,2.06,US,1707371083
272,lae,-6.7221,146.9847,302.73,72,100,4.04,PG,1707371083
273,susanville,40.4163,-120.653,273.06,100,100,0.0,US,1707371084
274,paita,-5.0892,-81.1144,298.92,81,65,3.71,PE,1707371084
275,sungailiat,-1.85,106.1333,298.24,92,99,3.29,ID,1707370868
276,antibes,43.5624,7.1278,281.82,80,75,3.09,FR,1707371084
277,scottburgh,-30.2867,30.7532,296.44,78,100,3.17,ZA,1707371084
278,ardakan,32.31,54.0175,284.07,32,0,0.86,IR,1707371084
279,laascaanood,8.4774,47.3597,295.4,63,59,8.28,SO,1707371084
280,bhachau,23.2833,70.35,298.5,23,96,6.97,IN,1707371084
281,xingcheng,40.6167,120.7167,272.6,42,61,2.61,CN,1707371084
282,ambovombe,-25.1667,46.0833,299.37,69,3,1.77,MG,1707371085
283,mont-laurier,46.5501,-75.4993,271.94,96,94,0.7,CA,1707370880
284,ribeira grande,38.5167,-28.7,288.58,90,51,7.15,PT,1707371085
285,arraial do cabo,-22.9661,-42.0278,298.51,88,100,2.57,BR,1707370971
286,newman,37.3138,-121.0208,279.81,93,79,0.89,US,1707371008
287,feijo,-8.1642,-70.3536,296.47,87,80,1.07,BR,1707371085
288,lubango,-14.9172,13.4925,290.07,100,98,2.06,AO,1707371085
289,xilin hot,43.9667,116.0333,260.93,84,41,4.33,CN,1707371085
290,lata,40.1629,-8.3327,288.1,81,100,4.47,PT,1707371085
291,eyl,7.9803,49.8164,301.2,56,31,9.22,SO,1707371086
292,takoradi,4.8845,-1.7554,297.93,85,4,0.71,GH,1707371086
293,irece,-11.3042,-41.8558,295.45,71,99,3.15,BR,1707371086
294,padangsidempuan,1.3667,99.2667,303.32,64,73,1.59,ID,1707371086
295,lamu,-2.2717,40.902,302.08,72,9,5.22,KE,1707371086
296,byron bay,-28.65,153.6167,296.88,87,38,6.18,AU,1707371086
297,shevchenko,48.5,35.0,279.46,77,100,4.55,UA,1707371087
298,thompson,55.7435,-97.8558,258.24,85,100,4.12,CA,1707370951
299,nova vicosa,-17.8919,-39.3719,298.46,86,100,1.65,BR,1707371087
300,antsiranana,-12.2787,49.2917,302.08,75,76,2.69,MG,1707371087
301,oppdal,62.5943,9.6912,259.88,54,81,3.95,NO,1707371087
302,batang,-6.4846,110.7083,302.68,68,33,2.2,ID,1707371087
303,hargeysa,9.56,44.065,292.23,73,37,3.65,SO,1707371088
304,berber,18.0216,33.983,291.87,46,20,4.3,SD,1707371088
305,caconda,-13.7333,15.0667,289.75,82,98,0.34,AO,1707371088
306,el granada,37.5027,-122.4694,282.53,73,100,9.77,US,1707370974
307,carnarvon,-24.8667,113.6333,304.74,49,0,6.85,AU,1707371088
308,kaa-khem,51.6833,94.7333,246.71,94,72,0.96,RU,1707370987
309,sunne,59.8376,13.143,254.38,82,24,1.63,SE,1707371088
310,tubarjal,30.4999,38.216,284.58,52,0,3.95,SA,1707371089
311,terrace,54.5163,-128.6035,273.1,74,100,2.06,CA,1707370930
312,ariquemes,-9.9133,-63.0408,296.44,96,98,0.71,BR,1707371089
313,bandarbeyla,9.4942,50.8122,300.01,65,75,7.89,SO,1707371089
314,colonia,50.9333,6.95,277.07,92,100,1.03,DE,1707370808
315,raton,36.9034,-104.4391,271.49,59,0,6.69,US,1707371089
316,puerto lempira,15.2667,-83.7667,296.49,71,93,5.32,HN,1707371089
317,mantua,45.1667,10.7833,279.85,69,77,0.45,IT,1707370853
318,yuzhno-kurilsk,44.0306,145.8556,269.47,77,100,4.8,RU,1707371090
319,bereeda,11.8704,51.0579,299.72,63,99,6.63,SO,1707371090
320,lyantor,61.6195,72.1555,267.85,95,100,7.02,RU,1707371090
321,marsabit,2.3284,37.9899,294.68,68,10,8.67,KE,1707371090
322,gorakhpur,29.45,75.6833,292.66,18,11,6.94,IN,1707371090
323,beloyarskiy,63.7119,66.6722,266.48,90,100,4.02,RU,1707371090
324,ciudad lazaro cardenas,17.9583,-102.2,297.4,81,33,2.07,MX,1707370807
325,bayanhongor,46.7167,100.1167,255.78,70,4,0.83,MN,1707371091
326,port macquarie,-31.4333,152.9167,298.09,69,99,6.42,AU,1707371091
327,viqueque,-8.8673,126.3658,303.92,66,85,2.6,TL,1707371091
328,barra de santo antonio,-9.4047,-35.5072,299.75,83,77,3.94,BR,1707371091
329,kenora,49.8167,-94.4337,275.69,100,100,5.14,CA,1707370981
330,ola,59.5833,151.2833,252.75,86,10,2.12,RU,1707370798
331,lazaro cardenas,17.9583,-102.2,297.4,81,33,2.07,MX,1707370807
332,ascension,30.2169,-90.9001,286.19,92,87,3.97,US,1707371092
333,broken hill,-31.95,141.4333,305.08,20,32,6.62,AU,1707371092
334,hilo,19.7297,-155.09,293.73,89,40,1.54,US,1707371021
335,zag,46.9441,99.165,256.89,71,3,0.82,MN,1707371092
336,kharsawan,22.8,85.8333,295.81,20,28,2.68,IN,1707371092
337,kampli,15.4,76.6167,306.94,20,21,3.01,IN,1707371092
338,bardai,11.65,7.2333,287.32,22,6,5.13,NG,1707371092
339,donetsk,48.0,37.8,279.2,77,99,4.63,UA,1707371092
340,quellon,-43.1167,-73.6167,282.24,89,20,1.58,CL,1707371093
341,juan griego,11.0817,-63.9655,301.22,83,27,2.07,VE,1707371093
342,jamaame,0.0697,42.745,303.79,60,13,6.76,SO,1707371093
343,arlington,32.7357,-97.1081,289.43,72,100,4.12,US,1707370552
344,yeed,4.55,43.0333,301.91,50,5,8.94,SO,1707371093
345,onega,63.9061,38.1404,251.59,99,63,2.49,RU,1707371093
346,sechura,-5.5569,-80.8222,299.67,74,73,4.61,PE,1707371094
347,qashyr,53.0675,76.1036,268.55,84,18,8.54,KZ,1707371094
348,pandan,14.0453,124.1694,300.95,71,9,1.98,PH,1707371094
349,luba,3.4568,8.5547,298.09,83,65,1.62,GQ,1707371094
350,medicine hat,50.0501,-110.6683,271.18,88,100,4.63,CA,1707371094
351,plettenberg bay,-34.0527,23.3716,293.0,77,75,2.18,ZA,1707371094
352,chibougamau,49.9168,-74.3659,269.94,93,100,1.54,CA,1707371094
353,palikir - national government center,6.9248,158.1611,303.56,66,100,2.57,FM,1707371094
354,kayyerkan,69.3786,87.7439,248.48,94,16,1.83,RU,1707371095
355,sitka,57.0531,-135.33,274.09,80,0,2.57,US,1707371095
356,babu,24.4167,111.5167,278.62,83,88,3.74,CN,1707371095
357,fortuna,40.5982,-124.1573,277.36,96,75,0.0,US,1707371095
358,biloela,-24.4167,150.5,307.36,31,49,7.73,AU,1707371095
359,monetnyy,57.0472,60.8794,260.66,95,93,0.49,RU,1707371095
360,yamba,-5.9,22.3,296.3,89,99,0.75,CD,1707371095
361,sao joao da barra,-21.6403,-41.0511,297.76,89,100,2.09,BR,1707371095
362,turkeli,41.9476,34.3386,285.23,65,100,2.71,TR,1707371096
363,susuman,62.7833,148.1667,241.56,100,92,0.85,RU,1707370933
364,cape canaveral,28.4058,-80.6048,285.59,90,0,5.14,US,1707371096
365,acarau,-2.8856,-40.12,300.32,80,27,5.73,BR,1707370910
366,palasa,18.7667,84.4167,302.67,59,5,3.97,IN,1707371096
367,chifeng,42.2683,118.9636,271.78,20,18,0.64,CN,1707371096
368,reggane,26.7158,0.1714,287.48,25,17,4.04,DZ,1707371096
369,vilyuchinsk,52.9306,158.4028,266.45,85,100,0.7,RU,1707371096
370,paso de los toros,-32.8167,-56.5167,299.43,59,19,5.05,UY,1707371097
371,mugia,43.1041,-9.2179,286.99,89,100,19.27,ES,1707371097
372,shache,38.4167,77.2406,274.95,54,5,0.19,CN,1707371097
373,worcester,42.3334,-71.8328,270.04,88,36,0.29,US,1707371000
374,dryden,49.7833,-92.7503,275.31,93,100,4.12,CA,1707370937
375,n'dalatando,-9.2978,14.9116,293.54,94,99,1.33,AO,1707371097
376,khovd,48.0056,91.6419,257.19,81,24,2.19,MN,1707371097
377,erenhot,43.6475,111.9767,263.94,76,28,2.75,CN,1707371097
378,yaren,-0.5472,166.916,302.24,79,100,7.67,NR,1707371097
379,nalut,30.3333,10.85,280.98,47,0,1.64,LY,1707371098
380,prince george,53.9166,-122.753,270.14,91,100,1.54,CA,1707371053
381,boquete,8.7833,-82.4333,287.47,87,59,3.0,PA,1707371098
382,luninyets,52.2472,26.8047,271.05,72,98,2.71,BY,1707371098
383,verkhnevilyuysk,63.4453,120.3167,245.7,96,87,1.77,RU,1707371098
384,juneau,58.3019,-134.4197,268.32,97,40,1.54,US,1707371054
385,nioki,-2.7167,17.6833,295.84,91,98,1.09,CD,1707371098
386,praia da vitoria,38.7333,-27.0667,289.29,77,20,7.96,PT,1707371010
387,altagracia de orituco,9.8601,-66.3814,296.97,89,95,1.42,VE,1707371099
388,happy valley-goose bay,53.3168,-60.3315,262.32,73,75,1.03,CA,1707371099
389,new norfolk,-42.7826,147.0587,294.97,38,2,2.48,AU,1707371099
390,horsham,51.064,-0.3272,278.23,97,75,4.12,GB,1707371099
391,lee acres,35.1487,-106.647,276.67,59,40,8.49,US,1707371099
392,lenart v slov. goricah,46.5761,15.8314,277.13,75,99,0.51,SI,1707371099
393,port saint john's,-31.6229,29.5448,296.56,56,15,1.49,ZA,1707371099
394,yamada,39.4667,141.95,278.63,46,63,2.37,JP,1707371099
395,sinop,41.7711,34.8709,276.39,59,100,3.75,TR,1707371100
396,port alberni,49.2413,-124.8028,277.22,95,73,0.89,CA,1707370938
397,mindif,10.3976,14.4363,292.07,25,4,3.9,CM,1707371100
398,saudarkrokur,65.7461,-19.6394,257.75,93,41,3.72,IS,1707371100
399,palangkaraya,-2.2,113.8333,309.14,41,59,1.01,ID,1707371100
400,waingapu,-9.6567,120.2641,303.43,66,46,2.62,ID,1707371100
401,carutapera,-1.195,-46.02,299.11,87,10,2.93,BR,1707371101
402,hammerfest,70.6634,23.6821,261.4,79,0,1.03,NO,1707371101
403,tanjung pandan,-2.75,107.65,300.88,77,100,4.8,ID,1707371101
404,vigan,17.5747,120.3869,303.11,90,6,4.8,PH,1707371101
405,lensk,60.7253,114.9278,253.93,90,61,0.35,RU,1707371101
406,kayenta,36.7278,-110.2546,273.37,78,65,8.39,US,1707371101
407,savanna-la-mar,18.219,-78.1332,297.0,75,5,4.16,JM,1707371101
408,rabigh,22.7986,39.0349,297.61,42,35,3.83,SA,1707371102
409,la sarre,48.8002,-79.1996,273.62,93,100,2.61,CA,1707371102
410,zemio,5.0314,25.1361,297.14,26,26,1.67,CF,1707371102
411,brak,27.5496,14.2714,283.52,44,1,1.69,LY,1707371102
412,zyryanovsk,49.7386,84.2719,265.67,94,100,0.74,KZ,1707371102
413,celestun,20.8667,-90.4,293.02,71,0,6.27,MX,1707371103
414,at taj,24.2049,23.2857,283.46,48,0,2.95,LY,1707371103
415,malax,62.9423,21.5731,250.43,78,0,1.03,FI,1707371103
416,shimanovsk,52.0,127.7,264.54,65,2,4.03,RU,1707371103
417,mar del plata,-38.0023,-57.5575,292.63,81,100,5.36,AR,1707370806
418,balaklava,44.5,33.6,282.8,58,97,2.53,UA,1707371103
419,bantay,17.5847,120.3892,303.13,90,6,4.76,PH,1707371103
420,fort bragg,35.139,-79.006,273.5,81,0,0.0,US,1707370974
421,pathein,16.7833,94.7333,305.4,38,1,7.1,MM,1707371104
422,taro,-8.3862,115.28,299.18,71,40,1.45,ID,1707371104
423,villa de leyva,5.645,-73.5667,288.04,95,98,1.35,CO,1707371065
424,blenheim,-41.516,173.9528,292.88,78,91,0.45,NZ,1707371104
425,lubang,13.8584,120.124,299.77,73,6,4.51,PH,1707371104
426,san antonio de pale,-1.4014,5.6325,300.94,79,59,3.52,GQ,1707371104
427,puerto carreno,6.189,-67.4859,298.34,88,95,1.91,CO,1707371104
428,laojunmiao,39.8333,97.7333,271.75,34,29,4.98,CN,1707371105
429,piti village,13.4626,144.6933,302.16,66,40,7.2,GU,1707371105
430,la paz,-16.5,-68.15,283.47,83,75,2.06,BO,1707370814
431,labrador city,52.9463,-66.9114,264.1,92,100,1.03,CA,1707371105
432,kuhmo,64.1333,29.5167,242.55,100,99,0.89,FI,1707371105
433,chita,52.0333,113.55,262.58,56,85,1.0,RU,1707371106
434,arkalyk,50.2486,66.9114,266.8,88,100,13.76,KZ,1707371106
435,sisophon,13.5859,102.9737,310.26,31,6,2.38,KH,1707371106
436,al hudaydah,14.7978,42.9545,299.25,70,78,0.56,YE,1707371106
437,miracema do tocantins,-9.5618,-48.3967,297.09,88,99,0.35,BR,1707371106
438,berlin,52.5244,13.4105,273.96,82,75,2.24,DE,1707370893
439,bonthe,7.5264,-12.505,297.62,93,36,1.48,SL,1707371083
440,xianning,29.8833,114.2167,276.71,85,98,0.31,CN,1707371107
441,zhangatas,43.5667,69.75,276.5,92,98,9.0,KZ,1707371107
442,nadym,65.5333,72.5167,266.26,86,100,7.83,RU,1707371107
443,thunder bay,48.4001,-89.3168,274.1,100,100,9.26,CA,1707370978
444,nova borova,50.693,28.6345,273.08,82,100,3.0,UA,1707371107
445,remire-montjoly,4.9167,-52.2667,300.17,83,75,2.06,GF,1707371107
446,perryton,36.4,-100.8027,276.11,81,0,7.2,US,1707371107
447,cartagena,10.3997,-75.5144,297.94,88,40,2.06,CO,1707370809
448,luau,-10.7073,22.2247,291.51,99,100,1.9,AO,1707371108
449,selfoss,63.9331,-20.9971,260.95,81,3,5.15,IS,1707371108
450,juchipila,21.4167,-103.1167,291.75,28,65,1.52,MX,1707371108
451,arhus,56.1567,10.2108,271.94,90,21,3.87,DK,1707371108
452,port hueneme,34.1478,-119.1951,283.66,80,0,8.23,US,1707371108
453,sogndal,61.2283,7.1003,250.25,100,84,0.7,NO,1707371108
454,altai,46.3722,96.2583,261.75,72,1,1.69,MN,1707371109
455,constitucion,-35.3333,-72.4167,289.79,61,1,4.57,CL,1707371109
456,le puy-en-velay,45.0437,3.8852,280.98,97,100,1.58,FR,1707371109
457,djibo,14.1022,-1.6306,291.24,15,14,4.6,BF,1707371109
458,ulladulla,-35.35,150.4667,294.64,52,62,3.44,AU,1707371109
459,sudak,44.85,34.9667,282.72,82,100,5.75,UA,1707371109
460,buka,40.8108,69.1986,284.81,44,100,1.8,UZ,1707371109
461,shwebo,22.5667,95.7,302.14,38,0,1.99,MM,1707371110
462,sulakyurt,40.1573,33.716,279.78,81,94,2.97,TR,1707371110
463,isla mujeres,21.2311,-86.731,293.24,62,0,4.69,MX,1707371110
464,nar'yan-mar,67.6713,53.087,259.88,95,100,4.92,RU,1707371110
465,karratha,-20.7377,116.8463,311.13,23,8,4.82,AU,1707370831
466,alesund,62.4723,6.1549,270.46,91,75,6.69,NO,1707371110
467,litchfield,41.7668,-73.2501,271.34,73,16,0.89,US,1707371067
468,cromwell,41.5951,-72.6454,272.45,83,100,0.0,US,1707371107
469,nyurba,63.2842,118.3319,246.03,97,100,1.0,RU,1707371111
470,acara,-1.9608,-48.1967,295.87,99,49,1.04,BR,1707371111
471,san jose de jachal,-30.2406,-68.7469,301.57,39,61,2.41,AR,1707371111
472,loukhi,66.0764,33.0381,245.04,100,70,1.54,RU,1707371111
473,monrovia,6.3005,-10.7969,298.4,89,8,1.54,LR,1707371111
474,linqiong,30.4159,103.4609,283.05,57,92,1.66,CN,1707371111
475,puerto baquerizo moreno,-0.9,-89.6,298.71,80,74,4.72,EC,1707371112
476,manuguru,17.981,80.7547,307.86,33,20,0.21,IN,1707371112
477,jiangyou,31.7667,104.7167,283.94,49,100,2.26,CN,1707371112
478,dunedin,-45.8742,170.5036,290.26,60,27,6.71,NZ,1707371112
479,hradec nad moravici,49.8704,17.8784,273.89,96,100,1.46,CZ,1707371112
480,carauari,-4.8828,-66.8958,296.38,98,100,0.37,BR,1707371112
481,nemuro,43.3236,145.575,271.06,75,69,5.08,JP,1707371112
482,phelan,34.4261,-117.5723,275.38,83,40,2.68,US,1707371113
483,fort drum,44.0584,-75.7619,273.94,76,100,3.6,US,1707371113
484,pangody,65.85,74.4859,267.38,92,99,7.51,RU,1707371113
485,kununurra,-15.7667,128.7333,306.14,55,75,7.72,AU,1707371113
486,ikwiriri,-7.9562,38.9716,300.47,87,87,1.92,TZ,1707371113
487,dien bien phu,21.3833,103.0167,304.25,22,0,2.63,VN,1707371113
488,abalak,58.1286,68.5944,263.34,93,87,4.01,RU,1707371113
489,brisas de zicatela,15.8369,-97.0419,296.62,82,4,1.47,MX,1707371113
490,keflavik,64.0049,-22.5624,268.39,68,0,6.17,IS,1707371018
491,usinsk,65.9939,57.5281,263.75,90,100,2.68,RU,1707370828
492,ceerigaabo,10.6162,47.368,291.56,46,48,0.69,SO,1707371114
493,la passe,45.5549,-0.8967,284.28,87,100,5.16,FR,1707371114
494,akrehamn,59.2667,5.1833,273.36,86,20,5.14,NO,1707371114
495,lethem,3.3803,-59.7968,301.33,57,49,4.02,GY,1707371114
496,sao jose da coroa grande,-8.8978,-35.1478,299.39,81,95,3.34,BR,1707371114
497,n'zeto,-7.2312,12.8666,300.12,85,100,3.32,AO,1707371115
498,san juan,-31.5375,-68.5364,305.54,34,99,5.46,AR,1707370838
499,moose jaw,50.4001,-105.5344,271.29,93,100,3.09,CA,1707371115
500,deqen,29.9618,90.7188,276.34,8,0,6.75,CN,1707371115
501,port moresby,-9.4431,147.1797,301.83,74,20,5.14,PG,1707371115
502,korla,41.7597,86.1469,272.16,67,21,3.78,CN,1707371115
503,kribi,2.95,9.9167,300.0,87,38,1.61,CM,1707371115
504,keyser,39.4409,-78.9739,272.05,84,49,1.19,US,1707371115
505,langepas,61.2544,75.2124,267.98,95,100,6.71,RU,1707371116
506,howard springs,-12.497,131.047,305.35,66,83,1.55,AU,1707371116
507,novopetrovskoye,55.9928,36.4719,253.36,98,97,2.83,RU,1707371116
508,xique xique,-10.8217,-42.7311,298.68,67,99,2.39,BR,1707371116
509,charters towers,-20.1,146.2667,308.93,24,25,5.75,AU,1707371116
510,san remo,43.8182,7.7612,282.92,87,67,1.79,IT,1707371116
511,coahuayana de hidalgo,18.7,-103.6583,296.01,88,57,0.87,MX,1707371116
512,amahai,-3.3333,128.9167,302.03,70,94,1.35,ID,1707371117
513,kingscliff,-28.2667,153.5667,301.28,65,75,7.2,AU,1707371117
514,westport,41.1415,-73.3579,272.62,76,0,0.45,US,1707370914
515,bafra,41.5678,35.9069,284.38,61,96,2.54,TR,1707371117
516,new plymouth,-39.0667,174.0833,293.45,78,83,6.63,NZ,1707371117
517,phalaborwa,-23.943,31.1411,298.75,68,57,5.85,ZA,1707371117
518,klaksvik,62.2266,-6.589,272.66,57,99,8.74,FO,1707371117
519,buncrana,55.1333,-7.45,275.21,78,100,6.43,IE,1707370923
520,port lavaca,28.615,-96.6261,292.08,83,100,4.63,US,1707371118
521,vila franca do campo,37.7167,-25.4333,291.42,99,89,8.33,PT,1707371118
522,mitu,1.1983,-70.1733,296.43,94,86,0.68,CO,1707371118
523,taghazout,30.5426,-9.7112,285.58,33,6,4.08,MA,1707371118
524,harar,9.3094,42.1258,293.32,44,3,4.36,ET,1707371118
525,howrah,22.5892,88.3103,296.15,40,20,4.63,IN,1707371118
526,bluefields,12.0137,-83.7635,295.85,86,40,4.3,NI,1707371118
527,bukama,-9.2,25.85,295.73,92,100,0.7,CD,1707371119
528,north battleford,52.7834,-108.2847,267.2,86,100,2.06,CA,1707371119
529,kolonia,50.9333,6.95,277.07,92,100,1.03,DE,1707371119
530,tara,56.8944,74.371,265.74,92,51,5.11,RU,1707371119
531,novovoronezh,51.3072,39.2173,270.31,81,92,6.35,RU,1707371119
532,maumere,-8.6199,122.2111,302.15,71,97,0.07,ID,1707371119
533,mpongwe,-13.5091,28.155,293.44,91,31,0.73,ZM,1707371119
534,vilcun,-38.65,-72.2333,284.57,68,100,1.15,CL,1707371120
535,derzhavinsk,51.1,66.3167,266.05,92,100,12.45,KZ,1707371120
536,romny,50.751,33.4747,271.64,83,97,4.55,UA,1707371120
537,big spring,32.2504,-101.4787,285.5,48,100,2.57,US,1707371120
538,murghob,38.1702,73.9667,256.23,65,4,1.71,TJ,1707371120
539,puerto princesa,9.7392,118.7353,304.14,62,20,4.12,PH,1707371120
540,leiyang,26.4024,112.8591,275.98,92,100,2.53,CN,1707371120
541,belyy yar,53.6039,91.3903,257.09,85,88,0.0,RU,1707371121
542,banda aceh,5.5577,95.3222,303.43,64,51,6.38,ID,1707371121
543,crane,31.3974,-102.3501,284.99,42,29,4.94,US,1707371121
544,soio,-6.1349,12.3689,300.07,86,99,2.09,AO,1707371121
545,pedro juan caballero,-22.5472,-55.7333,293.13,89,99,2.34,PY,1707371103
546,khandyga,62.6667,135.6,238.75,96,69,0.15,RU,1707371121
547,sarykemer,43.0,71.5,276.86,100,100,1.92,KZ,1707371121
548,saint croix,17.7397,-64.7388,295.35,90,100,2.57,VI,1707371121
549,groningen,53.25,6.75,273.28,89,100,0.99,NL,1707371122
550,rikaze,29.25,88.8833,278.3,8,0,3.19,CN,1707371122
551,hotan,37.0997,79.9269,276.5,39,1,1.84,CN,1707371122
552,huaihua,27.5494,109.9592,276.74,84,81,2.01,CN,1707371122
553,berdigestyakh,62.0989,126.6992,245.14,94,99,2.26,RU,1707371122
554,antsohihy,-14.8796,47.9875,301.87,78,53,0.42,MG,1707371122
555,mazagao,-0.115,-51.2894,300.18,99,20,1.56,BR,1707371122
556,elassona,39.8947,22.1886,274.78,58,100,0.94,GR,1707371122
557,haimen,23.1935,116.6142,285.09,74,99,6.39,CN,1707371123
558,nova xavantina,-14.6667,-52.35,296.54,90,100,0.51,BR,1707371123
